[
  { "id": 1, "name": "Universiteti Metropolitan i Tiranës (UMT)", "lat": 41.3440, "lng": 19.8060, "type": "university", "icon": "school" },
  { "id": 2, "name": "Universiteti i Tiranës (UT)", "lat": 41.3220, "lng": 19.8210, "type": "university", "icon": "school" },
  { "id": 3, "name": "Universiteti Politeknik i Tiranës (UPT)", "lat": 41.3236, "lng": 19.8195, "type": "university", "icon": "school" },
  { "id": 4, "name": "Universiteti i Mjekësisë, Tiranë (UMT Med)", "lat": 41.3265, "lng": 19.8120, "type": "university", "icon": "school" },
  { "id": 5, "name": "Universiteti Bujqësor i Tiranës", "lat": 41.3450, "lng": 19.8500, "type": "university", "icon": "school" },
  { "id": 6, "name": "Universiteti Europian i Tiranës (UET)", "lat": 41.3350, "lng": 19.8250, "type": "university", "icon": "school" },
  { "id": 7, "name": "Universiteti Marin Barleti", "lat": 41.3310, "lng": 19.8155, "type": "university", "icon": "school" },
  { "id": 8, "name": "Universiteti Epoka", "lat": 41.3480, "lng": 19.8640, "type": "university", "icon": "school" },
  { "id": 9, "name": "Universiteti Polis", "lat": 41.3390, "lng": 19.8070, "type": "university", "icon": "school" },
  { "id": 10, "name": "Universiteti Luarasi", "lat": 41.3230, "lng": 19.8185, "type": "university", "icon": "school" },
  { "id": 11, "name": "Akademia e Arteve", "lat": 41.3280, "lng": 19.8150, "type": "university", "icon": "school" },
  { "id": 12, "name": "Akademia e Forcave të Armatosura (AFASH)", "lat": 41.3360, "lng": 19.8530, "type": "university", "icon": "school" },
  { "id": 13, "name": "Kolegji Universitar Qiriazi", "lat": 41.3275, "lng": 19.8110, "type": "university", "icon": "school" },
  { "id": 14, "name": "Albanian University", "lat": 41.3295, "lng": 19.8180, "type": "university", "icon": "school" },
  { "id": 15, "name": "Universiteti Katolik \"Zoja e Këshillit të Mirë\"", "lat": 41.3310, "lng": 19.8090, "type": "university", "icon": "school" },

  { "id": 16, "name": "Gjimnazi \"Sami Frashëri\"", "lat": 41.3280, "lng": 19.8160, "type": "school", "icon": "school" },
  { "id": 17, "name": "Gjimnazi \"Petro Nini Luarasi\"", "lat": 41.3260, "lng": 19.8200, "type": "school", "icon": "school" },
  { "id": 18, "name": "Gjimnazi \"Ismail Qemali\"", "lat": 41.3230, "lng": 19.8240, "type": "school", "icon": "school" },
  { "id": 19, "name": "Gjimnazi \"Qemal Stafa\"", "lat": 41.3310, "lng": 19.8130, "type": "school", "icon": "school" },
  { "id": 20, "name": "Gjimnazi \"Andon Zako Çajupi\"", "lat": 41.3340, "lng": 19.8070, "type": "school", "icon": "school" },
  { "id": 21, "name": "Shkolla 9-Vjeçare \"Emin Duraku\"", "lat": 41.3240, "lng": 19.8135, "type": "school", "icon": "school" },
  { "id": 22, "name": "Shkolla \"Servete Maçi\"", "lat": 41.3410, "lng": 19.8180, "type": "school", "icon": "school" },
  { "id": 23, "name": "Shkolla \"Kushtrimi i Lirisë\"", "lat": 41.3190, "lng": 19.8230, "type": "school", "icon": "school" },
  { "id": 24, "name": "Shkolla \"Edit Durham\"", "lat": 41.3370, "lng": 19.8290, "type": "school", "icon": "school" },
  { "id": 25, "name": "Shkolla \"Avni Rustemi\"", "lat": 41.3300, "lng": 19.8050, "type": "school", "icon": "school" },

  { "id": 26, "name": "Qendra Spitalore Universitare \"Nënë Tereza\" (QSUT)", "lat": 41.3265, "lng": 19.8120, "type": "hospital", "icon": "hospital" },
  { "id": 27, "name": "Spitali Amerikan Tiranë", "lat": 41.3250, "lng": 19.7980, "type": "hospital", "icon": "hospital" },
  { "id": 28, "name": "Spitali Hygeia", "lat": 41.3230, "lng": 19.8090, "type": "hospital", "icon": "hospital" },
  { "id": 29, "name": "Spitali i Traumës", "lat": 41.3255, "lng": 19.8140, "type": "hospital", "icon": "hospital" },
  { "id": 30, "name": "Spitali Ushtarak Qendror", "lat": 41.3375, "lng": 19.8220, "type": "hospital", "icon": "hospital" },
  { "id": 31, "name": "Materniteti \"Mbretëresha Geraldinë\"", "lat": 41.3270, "lng": 19.8100, "type": "hospital", "icon": "hospital" },
  { "id": 32, "name": "Spitali Memorial Bahçesehir", "lat": 41.3320, "lng": 19.8020, "type": "hospital", "icon": "hospital" },
  { "id": 33, "name": "Poliklinika Nr. 1 Tiranë", "lat": 41.3290, "lng": 19.8170, "type": "hospital", "icon": "hospital" },
  { "id": 34, "name": "Poliklinika Nr. 3 Tiranë", "lat": 41.3340, "lng": 19.8100, "type": "hospital", "icon": "hospital" },

  { "id": 35, "name": "Kryeministria", "lat": 41.3275, "lng": 19.8187, "type": "government", "icon": "building" },
  { "id": 36, "name": "Presidenca e Republikës", "lat": 41.3265, "lng": 19.8175, "type": "government", "icon": "building" },
  { "id": 37, "name": "Kuvendi i Shqipërisë", "lat": 41.3250, "lng": 19.8190, "type": "government", "icon": "building" },
  { "id": 38, "name": "Bashkia e Tiranës", "lat": 41.3288, "lng": 19.8195, "type": "government", "icon": "building" },
  { "id": 39, "name": "Ministria e Arsimit dhe Sportit", "lat": 41.3260, "lng": 19.8160, "type": "government", "icon": "building" },
  { "id": 40, "name": "Ministria e Shëndetësisë", "lat": 41.3272, "lng": 19.8200, "type": "government", "icon": "building" },
  { "id": 41, "name": "Ministria e Brendshme", "lat": 41.3285, "lng": 19.8210, "type": "government", "icon": "building" },
  { "id": 42, "name": "Ministria e Drejtësisë", "lat": 41.3255, "lng": 19.8175, "type": "government", "icon": "building" },
  { "id": 43, "name": "Ministria e Financave", "lat": 41.3278, "lng": 19.8220, "type": "government", "icon": "building" },
  { "id": 44, "name": "Ministria e Infrastrukturës", "lat": 41.3268, "lng": 19.8155, "type": "government", "icon": "building" },
  { "id": 45, "name": "Gjykata e Lartë", "lat": 41.3248, "lng": 19.8165, "type": "government", "icon": "building" },
  { "id": 46, "name": "Prokuroria e Përgjithshme", "lat": 41.3240, "lng": 19.8205, "type": "government", "icon": "building" },
  { "id": 47, "name": "Drejtoria e Përgjithshme e Policisë", "lat": 41.3295, "lng": 19.8230, "type": "government", "icon": "building" },

  { "id": 48, "name": "Sheshi Skënderbej", "lat": 41.3275, "lng": 19.8189, "type": "landmark", "icon": "monument" },
  { "id": 49, "name": "Xhamia e Et'hem Beut", "lat": 41.3270, "lng": 19.8185, "type": "landmark", "icon": "monument" },
  { "id": 50, "name": "Kulla e Sahatit", "lat": 41.3272, "lng": 19.8183, "type": "landmark", "icon": "monument" },
  { "id": 51, "name": "Piramida e Tiranës", "lat": 41.3240, "lng": 19.8210, "type": "landmark", "icon": "monument" },
  { "id": 52, "name": "Pazari i Ri", "lat": 41.3255, "lng": 19.8215, "type": "landmark", "icon": "monument" },
  { "id": 53, "name": "Bulevardi Dëshmorët e Kombit", "lat": 41.3225, "lng": 19.8195, "type": "landmark", "icon": "monument" },
  { "id": 54, "name": "Parku i Madh i Tiranës (Parku i Liqenit)", "lat": 41.3120, "lng": 19.8270, "type": "landmark", "icon": "monument" },
  { "id": 55, "name": "Liqeni Artificial i Tiranës", "lat": 41.3110, "lng": 19.8260, "type": "landmark", "icon": "monument" },
  { "id": 56, "name": "Parku Rinia", "lat": 41.3260, "lng": 19.8230, "type": "landmark", "icon": "monument" },
  { "id": 57, "name": "Ura e Tabakëve", "lat": 41.3225, "lng": 19.8130, "type": "landmark", "icon": "monument" },
  { "id": 58, "name": "Kalaja e Tiranës", "lat": 41.3280, "lng": 19.8195, "type": "landmark", "icon": "monument" },
  { "id": 59, "name": "Varrezat e Dëshmorëve", "lat": 41.3170, "lng": 19.8300, "type": "landmark", "icon": "monument" },
  { "id": 60, "name": "Mali i Dajtit (Stacioni i Teleferikut)", "lat": 41.3550, "lng": 19.8700, "type": "landmark", "icon": "monument" },

  { "id": 61, "name": "Muzeu Historik Kombëtar", "lat": 41.3282, "lng": 19.8192, "type": "culture", "icon": "museum" },
  { "id": 62, "name": "Galeria Kombëtare e Arteve", "lat": 41.3246, "lng": 19.8200, "type": "culture", "icon": "museum" },
  { "id": 63, "name": "BUNK'ART 1", "lat": 41.3530, "lng": 19.8590, "type": "culture", "icon": "museum" },
  { "id": 64, "name": "BUNK'ART 2", "lat": 41.3270, "lng": 19.8170, "type": "culture", "icon": "museum" },
  { "id": 65, "name": "Shtëpia me Gjethe (House of Leaves)", "lat": 41.3278, "lng": 19.8165, "type": "culture", "icon": "museum" },
  { "id": 66, "name": "Teatri Kombëtar i Operas dhe Baletit", "lat": 41.3248, "lng": 19.8198, "type": "culture", "icon": "museum" },
  { "id": 67, "name": "Teatri Kombëtar", "lat": 41.3285, "lng": 19.8178, "type": "culture", "icon": "museum" },
  { "id": 68, "name": "Biblioteka Kombëtare", "lat": 41.3220, "lng": 19.8220, "type": "culture", "icon": "museum" },
  { "id": 69, "name": "Katedralja Ringjallja e Krishtit", "lat": 41.3235, "lng": 19.8215, "type": "culture", "icon": "museum" },
  { "id": 70, "name": "Kisha e Shën Prodhomit", "lat": 41.3305, "lng": 19.8100, "type": "culture", "icon": "museum" },

  { "id": 71, "name": "Tirana East Gate (TEG)", "lat": 41.3380, "lng": 19.8640, "type": "shopping", "icon": "shopping" },
  { "id": 72, "name": "Qendra Tregtare \"Coin\"", "lat": 41.3260, "lng": 19.8200, "type": "shopping", "icon": "shopping" },
  { "id": 73, "name": "City Park Mall", "lat": 41.3300, "lng": 19.8070, "type": "shopping", "icon": "shopping" },
  { "id": 74, "name": "Ring Center", "lat": 41.3240, "lng": 19.8150, "type": "shopping", "icon": "shopping" },
  { "id": 75, "name": "Casa Italia", "lat": 41.3215, "lng": 19.8235, "type": "shopping", "icon": "shopping" },
  { "id": 76, "name": "Toptani Shopping Center", "lat": 41.3278, "lng": 19.8175, "type": "shopping", "icon": "shopping" },
  { "id": 77, "name": "QTU (Qendra Tregtare Univers)", "lat": 41.3395, "lng": 19.8190, "type": "shopping", "icon": "shopping" },

  { "id": 78, "name": "Stadiumi \"Air Albania\"", "lat": 41.3230, "lng": 19.8260, "type": "sport", "icon": "sport" },
  { "id": 79, "name": "Pallati i Kongreseve", "lat": 41.3215, "lng": 19.8195, "type": "sport", "icon": "sport" },
  { "id": 80, "name": "Pishina Olimpike Tiranë", "lat": 41.3140, "lng": 19.8240, "type": "sport", "icon": "sport" },
  { "id": 81, "name": "Kompleksi Sportiv \"Partizani\"", "lat": 41.3130, "lng": 19.8290, "type": "sport", "icon": "sport" },
  { "id": 82, "name": "Fusha Sportive \"Selman Stërmasi\"", "lat": 41.3200, "lng": 19.8100, "type": "sport", "icon": "sport" },

  { "id": 83, "name": "Stacioni i Trenit Tiranë", "lat": 41.3345, "lng": 19.8175, "type": "transport", "icon": "transport" },
  { "id": 84, "name": "Terminali i Autobusëve Ndërkombëtare", "lat": 41.3400, "lng": 19.8020, "type": "transport", "icon": "transport" },
  { "id": 85, "name": "Terminali Lindor (Stacioni Jugor)", "lat": 41.3170, "lng": 19.8250, "type": "transport", "icon": "transport" },
  { "id": 86, "name": "Terminali \"Kinostudio\"", "lat": 41.3420, "lng": 19.7960, "type": "transport", "icon": "transport" },
  { "id": 87, "name": "Terminali \"Kombinat\"", "lat": 41.3300, "lng": 19.7800, "type": "transport", "icon": "transport" },
  { "id": 88, "name": "Terminali \"Sauk\"", "lat": 41.3085, "lng": 19.8350, "type": "transport", "icon": "transport" },

  { "id": 89, "name": "Banka e Shqipërisë", "lat": 41.3268, "lng": 19.8175, "type": "government", "icon": "building" },
  { "id": 90, "name": "Drejtoria e Tatimeve Tiranë", "lat": 41.3250, "lng": 19.8150, "type": "government", "icon": "building" },
  { "id": 91, "name": "Zyra e Gjendjes Civile Tiranë", "lat": 41.3290, "lng": 19.8200, "type": "government", "icon": "building" },
  { "id": 92, "name": "Posta Shqiptare (Zyra Qendrore)", "lat": 41.3282, "lng": 19.8190, "type": "government", "icon": "building" },

  { "id": 93, "name": "Hotel Rogner", "lat": 41.3258, "lng": 19.8168, "type": "hotel", "icon": "hotel" },
  { "id": 94, "name": "Hotel Plaza Tirana", "lat": 41.3265, "lng": 19.8210, "type": "hotel", "icon": "hotel" },
  { "id": 95, "name": "Maritim Hotel Plaza Tirana", "lat": 41.3240, "lng": 19.8230, "type": "hotel", "icon": "hotel" },
  { "id": 96, "name": "Mak Albania Hotel", "lat": 41.3250, "lng": 19.8110, "type": "hotel", "icon": "hotel" },

  { "id": 97, "name": "Kopshti Botanik i Tiranës", "lat": 41.3135, "lng": 19.8320, "type": "landmark", "icon": "monument" },
  { "id": 98, "name": "Kopshti Zoologjik i Tiranës", "lat": 41.3155, "lng": 19.8370, "type": "landmark", "icon": "monument" },
  { "id": 99, "name": "Ambasada Amerikane", "lat": 41.3205, "lng": 19.8145, "type": "embassy", "icon": "building" },
  { "id": 100, "name": "Ambasada Italiane", "lat": 41.3260, "lng": 19.8130, "type": "embassy", "icon": "building" }
]
